     3.00           OBSERVATION DATA    MIXED               RINEX VERSION / TYPE
                                                            PGM / RUN BY / DATE
                                                            OBSERVER /AGENCY
  2024    09    16    20    23   03.0000000     GPS         TIME OF FIRST OBS
  2024    09    16    20    23   04.0000000     GPS         TIME OF LAST OBS
G    8 C1C L1C D1C S1C C5Q L5Q D5Q S5Q                      SYS / # / OBS TYPES
E   12 C1B L1B D1B S1B C1C L1C D1C S1C C5Q L5Q D5Q S5Q      SYS / # / OBS TYPES
                                                            END OF HEADER
> 2024 09 16 20 22 44.0000000  0 14       0.0000
E04  26328079.831   138354998.1092       1830.639          37.000                                                                                                                                  
G10  21561807.253   113308050.3530      -2718.157          46.000    21561820.096    84613200.7820      -2029.899          49.000  
E11  26564754.306   139598724.1692         57.342          31.000                                                                    26564768.851   104245840.7680         43.286          32.000  
E12  26617071.543   139873682.2192      -2087.242          33.000                                                                                                                                  
E19  23461371.157   123290336.2652        167.244          41.000                                                                                                                                  
G21  24664048.714   129610420.8282      -1498.304          28.000                                                                  
E21  24548619.546   129003868.5100       1304.451          45.000                                                                    24548635.094    96334116.6610        973.803          48.000  
G23  24768188.097   130157715.1472      -3818.860          19.000                                                                  
G25  21511385.258   113043065.5010      -1147.887          40.000    21511399.602    84415350.0100       -857.057          43.000  
G26  22999669.806   120864120.8280       3726.371          34.000    22999689.245    90255722.2810       2782.379          41.000  
E27  26227312.894   137825456.9660      -1423.039          32.000                                                                                                                                  
G28  20438876.065   107407053.0482       -115.872          43.000                                                                  
G31  21331280.226   112096635.6602       2097.700          41.000                                                                  
G32  21075166.024   110750722.1100       -504.278          46.000    21075176.834    82703504.5000       -376.606          48.000
> 2024 09 16 20 22 45.0000000  0 13       0.0000
E04                                                                  26327731.079   138353151.1562       1842.853          33.000                                                                  
G10  21562323.151   113310761.5050      -2715.663          46.000    21562336.011    84615225.3230      -2028.153          50.000  
E11                                                                  26564653.034   139598194.6790        120.470          22.000    26564756.566   104245792.4951                         24.000  
E12                                                                  26617467.409   139875764.5642      -2086.837          33.000                                                                  
E19                                                                  23461338.027   123290162.0972        169.731          41.000                                                                  
G21  24664333.030   129611910.0713      -1493.784          31.000                                                                  
E21                                                                  24548370.156   129002557.4320       1306.743          45.000    24548385.608    96333137.6280        975.436          48.000  
G25  21511602.252   113044206.8960      -1146.159          41.000    21511616.761    84416202.2830       -855.878          44.000  
G26  22998959.389   120860387.4350       3729.132          35.000    22998978.811    90252934.3780       2784.544          41.000  
E27                                                                  26227581.391   137826874.3270      -1421.655          35.000                                                                  
G28  20438897.179   107407164.0143       -115.624          44.000                                                                  
G31  21330880.372   112094534.4763       2096.971          41.000                                                                  
G32  21075260.744   110751219.8880       -502.090          46.000    21075271.554    82703876.2120       -375.039          48.000
