     3.00           OBSERVATION DATA    MIXED               RINEX VERSION / TYPE
                                                            PGM / RUN BY / DATE
                                                            OBSERVER /AGENCY
E    8 C1C L1C D1C S1C C5Q L5Q D5Q S5Q                      SYS / # / OBS TYPES
G    8 C1C L1C D1C S1C C5Q L5Q D5Q S5Q                      SYS / # / OBS TYPES
                                                            END OF HEADER
> 2024 09 16 20 22 44.0000000  0 14       0.0000
E04                                                                                                                                
G10  21561807.253   113308050.353       -2718.157       46000.500    21561820.096    84613200.782       -2029.899       49000.500  
E11                                                                  26564768.851   104245840.768          43.286       32000.500  
E12                                                                                                                                
E19                                                                                                                                
G21  24664048.714   129610420.828       -1498.304       28000.500                                                                  
E21                                                                  24548635.094    96334116.661         973.803       48000.500  
G23  24768188.097   130157715.147       -3818.860       19000.500                                                                  
G25  21511385.258   113043065.501       -1147.887       40000.500    21511399.602    84415350.010        -857.057       43000.500  
G26  22999669.806   120864120.828        3726.371       34000.500    22999689.245    90255722.281        2782.379       41000.500  
E27                                                                                                                                
G28  20438876.065   107407053.048        -115.872       43000.500                                                                  
G31  21331280.226   112096635.660        2097.700       41000.500                                                                  
G32  21075166.024   110750722.110        -504.278       46000.500    21075176.834    82703504.500        -376.606       48000.500
> 2024 09 16 20 22 45.0000000  0 13       0.0000
E04  26327731.079   138353151.156        1842.853       33000.500                                                                  
G10  21562323.151   113310761.505       -2715.663       46000.500    21562336.011    84615225.323       -2028.153       50000.500  
E11  26564653.034   139598194.679         120.470       22000.500    26564756.566   104245792.495                       24000.500  
E12  26617467.409   139875764.564       -2086.837       33000.500                                                                  
E19  23461338.027   123290162.097         169.731       41000.500                                                                  
G21  24664333.030   129611910.071       -1493.784       31000.500                                                                  
E21  24548370.156   129002557.432        1306.743       45000.500    24548385.608    96333137.628         975.436       48000.500  
G25  21511602.252   113044206.896       -1146.159       41000.500    21511616.761    84416202.283        -855.878       44000.500  
G26  22998959.389   120860387.435        3729.132       35000.500    22998978.811    90252934.378        2784.544       41000.500  
E27  26227581.391   137826874.327       -1421.655       35000.500                                                                  
G28  20438897.179   107407164.014        -115.624       44000.500                                                                  
G31  21330880.372   112094534.476        2096.971       41000.500                                                                  
G32  21075260.744   110751219.888        -502.090       46000.500    21075271.554    82703876.212        -375.039       48000.500
