     3.04           OBSERVATION DATA    M: Mixed            RINEX VERSION / TYPE
CONVBIN demo5 b34k                      20240919 184014 UTC PGM / RUN BY / DATE 
format: RTCM 3                                              COMMENT             
log: 2024-09-16_20:18:29.rover-liv4.rtcm.log                COMMENT             
                                                            MARKER NAME         
                                                            MARKER NUMBER       
                                                            MARKER TYPE         
                                                            OBSERVER / AGENCY   
                                                            REC # / TYPE / VERS 
                                                            ANT # / TYPE        
  1021139.9004 -5078185.4463  3709166.5679                  APPROX POSITION XYZ 
        0.0000        0.0000        0.0000                  ANTENNA: DELTA H/E/N
G    6 C1C L1C D1C C5Q L5Q D5Q                              SYS / # / OBS TYPES 
E    9 C1C L1C D1C C1B L1B D1B C5Q L5Q D5Q                  SYS / # / OBS TYPES 
S    3 C1C L1C D1C                                          SYS / # / OBS TYPES 
  2024    09    16    20    19   28.5190000     GPS         TIME OF FIRST OBS   
  2024    09    16    21    01   35.0000000     GPS         TIME OF LAST OBS    
G L1C                                                       SYS / PHASE SHIFT   
G L5Q  0.00000                                              SYS / PHASE SHIFT   
E L1C  0.00000                                              SYS / PHASE SHIFT   
E L1B                                                       SYS / PHASE SHIFT   
E L5Q  0.00000                                              SYS / PHASE SHIFT   
S L1C                                                       SYS / PHASE SHIFT   
  0                                                         GLONASS SLOT / FRQ #
 C1C    0.000 C1P    0.000 C2C    0.000 C2P    0.000        GLONASS COD/PHS/BIS 
                                                            END OF HEADER       
> 2024 09 16 20 22 44.0000000  0 14                     
G10  21561807.253   113308050.353       -2718.157    21561820.096    84613200.782       -2029.899  
G21  24664048.714   129610420.8283      -1498.304                                                  
G23  24768188.097   130157715.1473      -3818.860                                                  
G25  21511385.258   113043065.501       -1147.887    21511399.602    84415350.010        -857.057  
G26  22999669.806   120864120.828        3726.371    22999689.245    90255722.281        2782.379  
G28  20438876.065   107407053.0483       -115.872                                                  
G31  21331280.226   112096635.6603       2097.700                                                  
G32  21075166.024   110750722.110        -504.278    21075176.834    82703504.500        -376.606  
E04                                                  26328079.831   138354998.1093       1830.639                                                  
E11                                                  26564754.306   139598724.1693         57.342    26564768.851   104245840.7681         43.286  
E12                                                  26617071.543   139873682.2193      -2087.242                                                  
E19                                                  23461371.157   123290336.2652        167.244                                                  
E21                                                  24548619.546   129003868.510        1304.451    24548635.094    96334116.661         973.803  
E27                                                  26227312.894   137825456.9661      -1423.039                                                  
> 2024 09 16 20 22 45.0000000  0 13                     
G10  21562323.151   113310761.505       -2715.663    21562336.011    84615225.323       -2028.153  
G21  24664333.030   129611910.0713      -1493.784                                                  
G25  21511602.252   113044206.896       -1146.159    21511616.761    84416202.283        -855.878  
G26  22998959.389   120860387.435        3729.132    22998978.811    90252934.378        2784.544  
G28  20438897.179   107407164.0142       -115.624                                                  
G31  21330880.372   112094534.4763       2096.971                                                  
G32  21075260.744   110751219.888        -502.090    21075271.554    82703876.212        -375.039  
E04  26327731.079   138353151.1563       1842.853                                                                                                  
E11  26564653.034   139598194.6791        120.470                                                    26564756.566   104245792.4951                 
E12  26617467.409   139875764.5643      -2086.837                                                                                                  
E19  23461338.027   123290162.0972        169.731                                                                                                  
E21  24548370.156   129002557.432        1306.743                                                    24548385.608    96333137.628         975.436  
E27  26227581.391   137826874.327       -1421.655                                                                                                  